{
    "type": "FeatureCollection",
    "features": [
        {
            "geometry": {
                "type": "Point",
                "coordinates": [
                    -99.96972222222223,
                    37.772777777777776
                ]
            },
            "type": "Feature",
            "properties": {
                "kind": "station",
                "id": 0,
                "name": "Dodge City, Dodge City Regional Airport, KS"
            }
        },
        {
            "geometry": {
                "type": "Point",
                "coordinates": [
                    -81.87666666666667,
                    30.21861111111111
                ]
            },
            "type": "Feature",
            "properties": {
                "kind": "station",
                "id": 1,
                "name": "Jacksonville, Cecil Field Airport, FL"
            }
        },
        {
            "geometry": {
                "type": "Point",
                "coordinates": [
                    -73.24638888888889,
                    42.89
                ]
            },
            "type": "Feature",
            "properties": {
                "kind": "station",
                "id": 2,
                "name": "Bennington, Bennington Morse State Airport, VT"
            }
        },
        {
            "geometry": {
                "type": "Point",
                "coordinates": [
                    -92.44805555555556,
                    41.10666666666667
                ]
            },
            "type": "Feature",
            "properties": {
                "kind": "station",
                "id": 3,
                "name": "Ottumwa, Ottumwa Industrial Airport, IA"
            }
        },
        {
            "geometry": {
                "type": "Point",
                "coordinates": [
                    -147.16666666666666,
                    61.93333333333333
                ]
            },
            "type": "Feature",
            "properties": {
                "kind": "station",
                "id": 4,
                "name": "Eureka, Skelton Airport, AK"
            }
        },
        {
            "geometry": {
                "type": "Point",
                "coordinates": [
                    -124.25,
                    43.416666666666664
                ]
            },
            "type": "Feature",
            "properties": {
                "kind": "station",
                "id": 5,
                "name": "North Bend Automatic Weather Observing / Reporting System, OR"
            }
        },
        {
            "geometry": {
                "type": "Point",
                "coordinates": [
                    -157.1,
                    21.15
                ]
            },
            "type": "Feature",
            "properties": {
                "kind": "station",
                "id": 6,
                "name": "Kaunakakai, Molokai Airport, HI"
            }
        },
        {
            "geometry": {
                "type": "Point",
                "coordinates": [
                    -93.84305555555555,
                    45.15888888888889
                ]
            },
            "type": "Feature",
            "properties": {
                "kind": "station",
                "id": 7,
                "name": "Buffalo, Buffalo Municipal Airport, MN"
            }
        },
        {
            "geometry": {
                "type": "Point",
                "coordinates": [
                    -89.67444444444445,
                    39.16222222222222
                ]
            },
            "type": "Feature",
            "properties": {
                "kind": "station",
                "id": 8,
                "name": "Litchfield, Litchfield Municipal Airport, IL"
            }
        },
        {
            "geometry": {
                "type": "Point",
                "coordinates": [
                    -76.41388888888889,
                    38.27861111111111
                ]
            },
            "type": "Feature",
            "properties": {
                "kind": "station",
                "id": 9,
                "name": "Patuxent River, Naval Air Station, MD"
            }
        },
        {
            "geometry": {
                "type": "Point",
                "coordinates": [
                    -162.75,
                    66.08333333333333
                ]
            },
            "type": "Feature",
            "properties": {
                "kind": "station",
                "id": 10,
                "name": "Deering, Deering/New Airport, AK"
            }
        },
        {
            "geometry": {
                "type": "Point",
                "coordinates": [
                    -176.64583333333331,
                    51.87777777777778
                ]
            },
            "type": "Feature",
            "properties": {
                "kind": "station",
                "id": 11,
                "name": "Adak Island, Adak Airport, AK"
            }
        },
        {
            "geometry": {
                "type": "Point",
                "coordinates": [
                    -158.51666666666668,
                    59.05
                ]
            },
            "type": "Feature",
            "properties": {
                "kind": "station",
                "id": 12,
                "name": "Dillingham, Dillingham Airport, AK"
            }
        },
        {
            "geometry": {
                "type": "Point",
                "coordinates": [
                    -152.5,
                    57.75
                ]
            },
            "type": "Feature",
            "properties": {
                "kind": "station",
                "id": 13,
                "name": "Kodiak, Kodiak Airport, AK"
            }
        },
        {
            "geometry": {
                "type": "Point",
                "coordinates": [
                    -166.53333333333333,
                    53.9
                ]
            },
            "type": "Feature",
            "properties": {
                "kind": "station",
                "id": 14,
                "name": "Unalaska, Unalaska Airport, AK"
            }
        },
        {
            "geometry": {
                "type": "Point",
                "coordinates": [
                    -84.81138888888889,
                    42.574444444444445
                ]
            },
            "type": "Feature",
            "properties": {
                "kind": "station",
                "id": 15,
                "name": "Charlotte, Fitch H Beach Airport, MI"
            }
        },
        {
            "geometry": {
                "type": "Point",
                "coordinates": [
                    -97.01666666666667,
                    34.3
                ]
            },
            "type": "Feature",
            "properties": {
                "kind": "station",
                "id": 16,
                "name": "Ardmore Municipal, OK"
            }
        },
        {
            "geometry": {
                "type": "Point",
                "coordinates": [
                    -95.21083333333334,
                    46.45027777777778
                ]
            },
            "type": "Feature",
            "properties": {
                "kind": "station",
                "id": 17,
                "name": "Wadena, Wadena Municipal Airport, MN"
            }
        },
        {
            "geometry": {
                "type": "Point",
                "coordinates": [
                    -79.13333333333334,
                    38.983333333333334
                ]
            },
            "type": "Feature",
            "properties": {
                "kind": "station",
                "id": 18,
                "name": "Petersburg, Grant County Airport, WV"
            }
        },
        {
            "geometry": {
                "type": "Point",
                "coordinates": [
                    -84.07944444444443,
                    41.867777777777775
                ]
            },
            "type": "Feature",
            "properties": {
                "kind": "station",
                "id": 19,
                "name": "Adrian, Lenawee County Airport, MI"
            }
        },
        {
            "geometry": {
                "type": "Point",
                "coordinates": [
                    -118.72444444444444,
                    34.743611111111115
                ]
            },
            "type": "Feature",
            "properties": {
                "kind": "station",
                "id": 20,
                "name": "Sandberg, CA"
            }
        },
        {
            "geometry": {
                "type": "Point",
                "coordinates": [
                    -95.41666666666667,
                    40.75
                ]
            },
            "type": "Feature",
            "properties": {
                "kind": "station",
                "id": 21,
                "name": "Shenandoah Municipal, IA"
            }
        },
        {
            "geometry": {
                "type": "Point",
                "coordinates": [
                    -91.75111111111111,
                    33.638333333333335
                ]
            },
            "type": "Feature",
            "properties": {
                "kind": "station",
                "id": 22,
                "name": "Monticello, Monticello Municipal Airport/Ellis Field, AR"
            }
        },
        {
            "geometry": {
                "type": "Point",
                "coordinates": [
                    -80.37666666666667,
                    27.498055555555556
                ]
            },
            "type": "Feature",
            "properties": {
                "kind": "station",
                "id": 23,
                "name": "Fort Pierce, St. Lucie County International Airport, FL"
            }
        },
        {
            "geometry": {
                "type": "Point",
                "coordinates": [
                    -94.92027777777778,
                    41.70111111111111
                ]
            },
            "type": "Feature",
            "properties": {
                "kind": "station",
                "id": 24,
                "name": "Audubon, Audubon County Airport, IA"
            }
        },
        {
            "geometry": {
                "type": "Point",
                "coordinates": [
                    -111.91055555555556,
                    33.62277777777778
                ]
            },
            "type": "Feature",
            "properties": {
                "kind": "station",
                "id": 25,
                "name": "Scottsdale, Scottsdale Airport, AZ"
            }
        },
        {
            "geometry": {
                "type": "Point",
                "coordinates": [
                    -116.99305555555556,
                    32.57527777777778
                ]
            },
            "type": "Feature",
            "properties": {
                "kind": "station",
                "id": 26,
                "name": "San Diego, Brown Field Municipal Airport, CA"
            }
        },
        {
            "geometry": {
                "type": "Point",
                "coordinates": [
                    -104.01666666666667,
                    30.366666666666667
                ]
            },
            "type": "Feature",
            "properties": {
                "kind": "station",
                "id": 27,
                "name": "Marfa, TX"
            }
        },
        {
            "geometry": {
                "type": "Point",
                "coordinates": [
                    -77.98444444444445,
                    39.401944444444446
                ]
            },
            "type": "Feature",
            "properties": {
                "kind": "station",
                "id": 28,
                "name": "Martinsburg, Eastern West Virginia Regional/Shepherd Airport, WV"
            }
        },
        {
            "geometry": {
                "type": "Point",
                "coordinates": [
                    -89.86472222222221,
                    30.81361111111111
                ]
            },
            "type": "Feature",
            "properties": {
                "kind": "station",
                "id": 29,
                "name": "Bogalusa, George R Carr Memorial Air Field, LA"
            }
        },
        {
            "geometry": {
                "type": "Point",
                "coordinates": [
                    -81.61083333333333,
                    35.82138888888889
                ]
            },
            "type": "Feature",
            "properties": {
                "kind": "station",
                "id": 30,
                "name": "Morganton, Morganton-Lenoir Airport, NC"
            }
        },
        {
            "geometry": {
                "type": "Point",
                "coordinates": [
                    -90.23194444444445,
                    42.88527777777778
                ]
            },
            "type": "Feature",
            "properties": {
                "kind": "station",
                "id": 31,
                "name": "Mineral Point, Iowa County Airport, WI"
            }
        },
        {
            "geometry": {
                "type": "Point",
                "coordinates": [
                    -76.66055555555556,
                    34.73361111111111
                ]
            },
            "type": "Feature",
            "properties": {
                "kind": "station",
                "id": 32,
                "name": "Beaufort, Michael J Smith Field Airport, NC"
            }
        },
        {
            "geometry": {
                "type": "Point",
                "coordinates": [
                    -121.8475,
                    36.59055555555556
                ]
            },
            "type": "Feature",
            "properties": {
                "kind": "station",
                "id": 33,
                "name": "Monterey, Monterey Peninsula Airport, CA"
            }
        },
        {
            "geometry": {
                "type": "Point",
                "coordinates": [
                    -91.73722222222223,
                    35.21194444444445
                ]
            },
            "type": "Feature",
            "properties": {
                "kind": "station",
                "id": 34,
                "name": "Searcy, Searcy Municipal Airport, AR"
            }
        },
        {
            "geometry": {
                "type": "Point",
                "coordinates": [
                    -82.5586111111111,
                    27.40138888888889
                ]
            },
            "type": "Feature",
            "properties": {
                "kind": "station",
                "id": 35,
                "name": "Sarasota / Bradenton, Sarasota-Bradenton International Airport, FL"
            }
        },
        {
            "geometry": {
                "type": "Point",
                "coordinates": [
                    -105.53333333333333,
                    33.46666666666667
                ]
            },
            "type": "Feature",
            "properties": {
                "kind": "station",
                "id": 36,
                "name": "Ruidoso Regional, NM"
            }
        },
        {
            "geometry": {
                "type": "Point",
                "coordinates": [
                    -90.64305555555556,
                    35.83722222222222
                ]
            },
            "type": "Feature",
            "properties": {
                "kind": "station",
                "id": 37,
                "name": "Jonesboro, Jonesboro Municipal Airport, AR"
            }
        },
        {
            "geometry": {
                "type": "Point",
                "coordinates": [
                    -117.38333333333334,
                    34.583333333333336
                ]
            },
            "type": "Feature",
            "properties": {
                "kind": "station",
                "id": 38,
                "name": "George Air Force Base / Victorvi, CA"
            }
        },
        {
            "geometry": {
                "type": "Point",
                "coordinates": [
                    -96.92972222222222,
                    28.8625
                ]
            },
            "type": "Feature",
            "properties": {
                "kind": "station",
                "id": 39,
                "name": "Victoria, Victoria Regional Airport, TX"
            }
        },
        {
            "geometry": {
                "type": "Point",
                "coordinates": [
                    -83.98416666666667,
                    42.629444444444445
                ]
            },
            "type": "Feature",
            "properties": {
                "kind": "station",
                "id": 40,
                "name": "Howell, Livingston County Airport, MI"
            }
        },
        {
            "geometry": {
                "type": "Point",
                "coordinates": [
                    -94.93333333333334,
                    47.5
                ]
            },
            "type": "Feature",
            "properties": {
                "kind": "station",
                "id": 41,
                "name": "Bemidji, MN"
            }
        },
        {
            "geometry": {
                "type": "Point",
                "coordinates": [
                    -85.71666666666667,
                    31.283333333333335
                ]
            },
            "type": "Feature",
            "properties": {
                "kind": "station",
                "id": 42,
                "name": "Cairns Army Air Field / Ozark, AL"
            }
        },
        {
            "geometry": {
                "type": "Point",
                "coordinates": [
                    -81.88666666666667,
                    40.87305555555555
                ]
            },
            "type": "Feature",
            "properties": {
                "kind": "station",
                "id": 43,
                "name": "Wooster, Wayne County Airport, OH"
            }
        },
        {
            "geometry": {
                "type": "Point",
                "coordinates": [
                    -105.11666666666666,
                    39.916666666666664
                ]
            },
            "type": "Feature",
            "properties": {
                "kind": "station",
                "id": 44,
                "name": "Broomfield / Jeffco, CO"
            }
        },
        {
            "geometry": {
                "type": "Point",
                "coordinates": [
                    -121.9575,
                    38.37777777777778
                ]
            },
            "type": "Feature",
            "properties": {
                "kind": "station",
                "id": 45,
                "name": "Vacaville, Nut Tree Airport, CA"
            }
        },
        {
            "geometry": {
                "type": "Point",
                "coordinates": [
                    -73.41694444444445,
                    40.73416666666667
                ]
            },
            "type": "Feature",
            "properties": {
                "kind": "station",
                "id": 46,
                "name": "Farmingdale, Republic Airport, NY"
            }
        },
        {
            "geometry": {
                "type": "Point",
                "coordinates": [
                    -71.79888888888888,
                    41.349722222222226
                ]
            },
            "type": "Feature",
            "properties": {
                "kind": "station",
                "id": 47,
                "name": "Westerly, Westerly State Airport, RI"
            }
        },
        {
            "geometry": {
                "type": "Point",
                "coordinates": [
                    -122.76555555555555,
                    45.24888888888889
                ]
            },
            "type": "Feature",
            "properties": {
                "kind": "station",
                "id": 48,
                "name": "Aurora, Aurora State Airport, OR"
            }
        },
        {
            "geometry": {
                "type": "Point",
                "coordinates": [
                    -96.37416666666665,
                    30.218888888888888
                ]
            },
            "type": "Feature",
            "properties": {
                "kind": "station",
                "id": 49,
                "name": "Brenham, Brenham Municipal Airport, TX"
            }
        },
        {
            "geometry": {
                "type": "Point",
                "coordinates": [
                    -95.62583333333333,
                    39.072500000000005
                ]
            },
            "type": "Feature",
            "properties": {
                "kind": "station",
                "id": 50,
                "name": "Topeka, Philip Billard Municipal Airport, KS"
            }
        },
        {
            "geometry": {
                "type": "Point",
                "coordinates": [
                    -104.15277777777779,
                    42.06472222222222
                ]
            },
            "type": "Feature",
            "properties": {
                "kind": "station",
                "id": 51,
                "name": "Torrington, Torrington Municipal Airport, WY"
            }
        },
        {
            "geometry": {
                "type": "Point",
                "coordinates": [
                    -92.83138888888888,
                    44.018055555555556
                ]
            },
            "type": "Feature",
            "properties": {
                "kind": "station",
                "id": 52,
                "name": "Dodge Center, Dodge Center Airport, MN"
            }
        },
        {
            "geometry": {
                "type": "Point",
                "coordinates": [
                    -83.80138888888888,
                    41.58861111111111
                ]
            },
            "type": "Feature",
            "properties": {
                "kind": "station",
                "id": 53,
                "name": "Toledo, Toledo Express Airport, OH"
            }
        },
        {
            "geometry": {
                "type": "Point",
                "coordinates": [
                    -86.01222222222222,
                    31.860555555555557
                ]
            },
            "type": "Feature",
            "properties": {
                "kind": "station",
                "id": 54,
                "name": "Troy, Troy Municipal Airport, AL"
            }
        },
        {
            "geometry": {
                "type": "Point",
                "coordinates": [
                    -89.32777777777777,
                    39.534166666666664
                ]
            },
            "type": "Feature",
            "properties": {
                "kind": "station",
                "id": 55,
                "name": "Taylorville, Taylorville Municipal Airport, IL"
            }
        },
        {
            "geometry": {
                "type": "Point",
                "coordinates": [
                    -68.69194444444445,
                    45.647777777777776
                ]
            },
            "type": "Feature",
            "properties": {
                "kind": "station",
                "id": 56,
                "name": "Millinocket, Millinocket Municipal Airport, ME"
            }
        },
        {
            "geometry": {
                "type": "Point",
                "coordinates": [
                    -92.03138888888888,
                    32.51166666666666
                ]
            },
            "type": "Feature",
            "properties": {
                "kind": "station",
                "id": 57,
                "name": "Monroe, Monroe Regional Airport, LA"
            }
        },
        {
            "geometry": {
                "type": "Point",
                "coordinates": [
                    -115.66972222222223,
                    47.45416666666667
                ]
            },
            "type": "Feature",
            "properties": {
                "kind": "station",
                "id": 58,
                "name": "Mullan Pass, Mullan Pass Vor, ID"
            }
        },
        {
            "geometry": {
                "type": "Point",
                "coordinates": [
                    -105.8863888888889,
                    46.42805555555555
                ]
            },
            "type": "Feature",
            "properties": {
                "kind": "station",
                "id": 59,
                "name": "Miles City, Frank Wiley Field Airport, MT"
            }
        },
        {
            "geometry": {
                "type": "Point",
                "coordinates": [
                    -71.02111111111111,
                    41.87555555555556
                ]
            },
            "type": "Feature",
            "properties": {
                "kind": "station",
                "id": 60,
                "name": "Taunton, Taunton Municipal Airport, MA"
            }
        },
        {
            "geometry": {
                "type": "Point",
                "coordinates": [
                    144.93333333333334,
                    13.583333333333334
                ]
            },
            "type": "Feature",
            "properties": {
                "kind": "station",
                "id": 61,
                "name": "Andersen, Mariana Is, Andersen Air Force Base, GU"
            }
        },
        {
            "geometry": {
                "type": "Point",
                "coordinates": [
                    -83.24055555555556,
                    33.15416666666667
                ]
            },
            "type": "Feature",
            "properties": {
                "kind": "station",
                "id": 62,
                "name": "Milledgeville, Baldwin County Airport, GA"
            }
        },
        {
            "geometry": {
                "type": "Point",
                "coordinates": [
                    144.8,
                    13.483333333333333
                ]
            },
            "type": "Feature",
            "properties": {
                "kind": "station",
                "id": 63,
                "name": "Agana, Guam International Airport, GU"
            }
        },
        {
            "geometry": {
                "type": "Point",
                "coordinates": [
                    -113.00972222222222,
                    38.4225
                ]
            },
            "type": "Feature",
            "properties": {
                "kind": "station",
                "id": 64,
                "name": "Milford, Milford Municipal Airport, UT"
            }
        },
        {
            "geometry": {
                "type": "Point",
                "coordinates": [
                    -66.0,
                    18.45
                ]
            },
            "type": "Feature",
            "properties": {
                "kind": "station",
                "id": 65,
                "name": "San Juan, Luis Munoz Marin International Airport, PR"
            }
        },
        {
            "geometry": {
                "type": "Point",
                "coordinates": [
                    -80.64583333333334,
                    28.102777777777778
                ]
            },
            "type": "Feature",
            "properties": {
                "kind": "station",
                "id": 66,
                "name": "Melbourne, Melbourne International Airport, FL"
            }
        },
        {
            "geometry": {
                "type": "Point",
                "coordinates": [
                    -95.78305555555555,
                    34.882222222222225
                ]
            },
            "type": "Feature",
            "properties": {
                "kind": "station",
                "id": 67,
                "name": "McAlester, McAlester Regional Airport, OK"
            }
        },
        {
            "geometry": {
                "type": "Point",
                "coordinates": [
                    -84.72888888888889,
                    44.680277777777775
                ]
            },
            "type": "Feature",
            "properties": {
                "kind": "station",
                "id": 68,
                "name": "Grayling, Grayling Army Airfield, MI"
            }
        },
        {
            "geometry": {
                "type": "Point",
                "coordinates": [
                    -91.54305555555555,
                    41.632777777777775
                ]
            },
            "type": "Feature",
            "properties": {
                "kind": "station",
                "id": 69,
                "name": "Iowa City, Iowa City Municipal Airport, IA"
            }
        },
        {
            "geometry": {
                "type": "Point",
                "coordinates": [
                    -97.4075,
                    35.85194444444445
                ]
            },
            "type": "Feature",
            "properties": {
                "kind": "station",
                "id": 70,
                "name": "Guthrie, Guthrie Municipal Airport, OK"
            }
        },
        {
            "geometry": {
                "type": "Point",
                "coordinates": [
                    -72.04944444444445,
                    41.3275
                ]
            },
            "type": "Feature",
            "properties": {
                "kind": "station",
                "id": 71,
                "name": "Groton / New London, Groton / New London Airport, CT"
            }
        },
        {
            "geometry": {
                "type": "Point",
                "coordinates": [
                    -72.6825,
                    41.93805555555555
                ]
            },
            "type": "Feature",
            "properties": {
                "kind": "station",
                "id": 72,
                "name": "Windsor Locks, Bradley International Airport, CT"
            }
        },
        {
            "geometry": {
                "type": "Point",
                "coordinates": [
                    -109.06666666666666,
                    35.65
                ]
            },
            "type": "Feature",
            "properties": {
                "kind": "station",
                "id": 73,
                "name": "Window Rock, Window Rock Airport, AZ"
            }
        },
        {
            "geometry": {
                "type": "Point",
                "coordinates": [
                    -85.50416666666666,
                    43.722500000000004
                ]
            },
            "type": "Feature",
            "properties": {
                "kind": "station",
                "id": 74,
                "name": "Big Rapids, Roben-Hood Airport, MI"
            }
        },
        {
            "geometry": {
                "type": "Point",
                "coordinates": [
                    -77.96666666666667,
                    35.333333333333336
                ]
            },
            "type": "Feature",
            "properties": {
                "kind": "station",
                "id": 75,
                "name": "Seymour-Johnson Air Force Base, NC"
            }
        },
        {
            "geometry": {
                "type": "Point",
                "coordinates": [
                    -79.94361111111111,
                    36.097500000000004
                ]
            },
            "type": "Feature",
            "properties": {
                "kind": "station",
                "id": 76,
                "name": "Greensboro, Piedmont Triad International Airport, NC"
            }
        },
        {
            "geometry": {
                "type": "Point",
                "coordinates": [
                    -85.78666666666666,
                    41.52611111111111
                ]
            },
            "type": "Feature",
            "properties": {
                "kind": "station",
                "id": 77,
                "name": "Goshen, Goshen Municipal Airport, IN"
            }
        },
        {
            "geometry": {
                "type": "Point",
                "coordinates": [
                    -113.76388888888889,
                    32.62361111111111
                ]
            },
            "type": "Feature",
            "properties": {
                "kind": "station",
                "id": 78,
                "name": "Yuma, Marine Corps Air Station, AZ"
            }
        },
        {
            "geometry": {
                "type": "Point",
                "coordinates": [
                    -82.22083333333333,
                    34.88388888888889
                ]
            },
            "type": "Feature",
            "properties": {
                "kind": "station",
                "id": 79,
                "name": "Greer, Greenville-Spartanburg Airport, SC"
            }
        },
        {
            "geometry": {
                "type": "Point",
                "coordinates": [
                    -73.96666666666667,
                    40.78333333333333
                ]
            },
            "type": "Feature",
            "properties": {
                "kind": "station",
                "id": 80,
                "name": "New York City, Central Park, NY"
            }
        },
        {
            "geometry": {
                "type": "Point",
                "coordinates": [
                    -86.0,
                    41.71666666666667
                ]
            },
            "type": "Feature",
            "properties": {
                "kind": "station",
                "id": 81,
                "name": "Elkhart Municipal, IN"
            }
        },
        {
            "geometry": {
                "type": "Point",
                "coordinates": [
                    -76.76444444444445,
                    37.52111111111111
                ]
            },
            "type": "Feature",
            "properties": {
                "kind": "station",
                "id": 82,
                "name": "West Point, Middle Peninsula Regional Airport, VA"
            }
        },
        {
            "geometry": {
                "type": "Point",
                "coordinates": [
                    -115.79166666666667,
                    40.825
                ]
            },
            "type": "Feature",
            "properties": {
                "kind": "station",
                "id": 83,
                "name": "Elko, Elko Regional Airport, NV"
            }
        },
        {
            "geometry": {
                "type": "Point",
                "coordinates": [
                    -79.85277777777777,
                    38.88527777777778
                ]
            },
            "type": "Feature",
            "properties": {
                "kind": "station",
                "id": 84,
                "name": "Elkins, Elkins-Randolph County-Jennings Randolph Field, WV"
            }
        },
        {
            "geometry": {
                "type": "Point",
                "coordinates": [
                    -94.1,
                    36.36666666666667
                ]
            },
            "type": "Feature",
            "properties": {
                "kind": "station",
                "id": 85,
                "name": "Rogers Automatic Weather Observing / Reporting System, AR"
            }
        },
        {
            "geometry": {
                "type": "Point",
                "coordinates": [
                    -78.56666666666666,
                    36.6
                ]
            },
            "type": "Feature",
            "properties": {
                "kind": "station",
                "id": 86,
                "name": "Clarksville / Marks, VA"
            }
        },
        {
            "geometry": {
                "type": "Point",
                "coordinates": [
                    -73.88416666666667,
                    41.626666666666665
                ]
            },
            "type": "Feature",
            "properties": {
                "kind": "station",
                "id": 87,
                "name": "Poughkeepsie, Dutchess County Airport, NY"
            }
        },
        {
            "geometry": {
                "type": "Point",
                "coordinates": [
                    -79.97416666666666,
                    37.316944444444445
                ]
            },
            "type": "Feature",
            "properties": {
                "kind": "station",
                "id": 88,
                "name": "Roanoke, Roanoke Regional Airport, VA"
            }
        },
        {
            "geometry": {
                "type": "Point",
                "coordinates": [
                    -81.75361111111111,
                    24.553611111111113
                ]
            },
            "type": "Feature",
            "properties": {
                "kind": "station",
                "id": 89,
                "name": "Key West, Key West International Airport, FL"
            }
        },
        {
            "geometry": {
                "type": "Point",
                "coordinates": [
                    -104.50777777777778,
                    33.308055555555555
                ]
            },
            "type": "Feature",
            "properties": {
                "kind": "station",
                "id": 90,
                "name": "Roswell, Roswell Industrial Air Center Airport, NM"
            }
        },
        {
            "geometry": {
                "type": "Point",
                "coordinates": [
                    -117.78333333333333,
                    34.1
                ]
            },
            "type": "Feature",
            "properties": {
                "kind": "station",
                "id": 91,
                "name": "La Verne / Brackett, CA"
            }
        },
        {
            "geometry": {
                "type": "Point",
                "coordinates": [
                    -92.95305555555557,
                    45.698055555555555
                ]
            },
            "type": "Feature",
            "properties": {
                "kind": "station",
                "id": 92,
                "name": "Rush City, Rush City Regional Airport, MN"
            }
        },
        {
            "geometry": {
                "type": "Point",
                "coordinates": [
                    -90.32222222222222,
                    36.77055555555555
                ]
            },
            "type": "Feature",
            "properties": {
                "kind": "station",
                "id": 93,
                "name": "Poplar Bluff, Poplar Bluff Municipal Airport, MO"
            }
        },
        {
            "geometry": {
                "type": "Point",
                "coordinates": [
                    -78.58333333333333,
                    34.6
                ]
            },
            "type": "Feature",
            "properties": {
                "kind": "station",
                "id": 94,
                "name": "Elizabethtown, Curtis L Brown Jr. Field Airport, NC"
            }
        },
        {
            "geometry": {
                "type": "Point",
                "coordinates": [
                    -86.29583333333333,
                    39.825
                ]
            },
            "type": "Feature",
            "properties": {
                "kind": "station",
                "id": 95,
                "name": "Indianapolis, Eagle Creek Airpark, IN"
            }
        },
        {
            "geometry": {
                "type": "Point",
                "coordinates": [
                    -75.46305555555556,
                    37.940555555555555
                ]
            },
            "type": "Feature",
            "properties": {
                "kind": "station",
                "id": 96,
                "name": "Wallops Island, Wallops Flight Facility Airport, VA"
            }
        },
        {
            "geometry": {
                "type": "Point",
                "coordinates": [
                    -77.73,
                    39.70583333333334
                ]
            },
            "type": "Feature",
            "properties": {
                "kind": "station",
                "id": 97,
                "name": "Hagerstown, Washington County Regional Airport, MD"
            }
        },
        {
            "geometry": {
                "type": "Point",
                "coordinates": [
                    -73.28916666666666,
                    42.42722222222222
                ]
            },
            "type": "Feature",
            "properties": {
                "kind": "station",
                "id": 98,
                "name": "Pittsfield, Pittsfield Municipal Airport, MA"
            }
        },
        {
            "geometry": {
                "type": "Point",
                "coordinates": [
                    -119.11666666666666,
                    46.26972222222222
                ]
            },
            "type": "Feature",
            "properties": {
                "kind": "station",
                "id": 99,
                "name": "Pasco, Tri-Cities Airport, WA"
            }
        },
        {
            "geometry": {
                "type": "Point",
                "coordinates": [
                    -70.81666666666666,
                    43.083333333333336
                ]
            },
            "type": "Feature",
            "properties": {
                "kind": "station",
                "id": 100,
                "name": "Pease Air Force Base / Portsmouth, NH"
            }
        },
        {
            "geometry": {
                "type": "Point",
                "coordinates": [
                    -95.70611111111111,
                    31.779444444444444
                ]
            },
            "type": "Feature",
            "properties": {
                "kind": "station",
                "id": 101,
                "name": "Palestine, Palestine Municipal Airport, TX"
            }
        },
        {
            "geometry": {
                "type": "Point",
                "coordinates": [
                    -117.14250000000001,
                    32.86833333333333
                ]
            },
            "type": "Feature",
            "properties": {
                "kind": "station",
                "id": 102,
                "name": "San Diego, Miramar MCAS/Mitscher Field Airport, CA"
            }
        },
        {
            "geometry": {
                "type": "Point",
                "coordinates": [
                    -80.68333333333334,
                    37.13333333333333
                ]
            },
            "type": "Feature",
            "properties": {
                "kind": "station",
                "id": 103,
                "name": "Dublin / New River Valley, VA"
            }
        },
        {
            "geometry": {
                "type": "Point",
                "coordinates": [
                    -116.50361111111111,
                    33.82222222222222
                ]
            },
            "type": "Feature",
            "properties": {
                "kind": "station",
                "id": 104,
                "name": "Palm Springs, Palm Springs Regional Airport, CA"
            }
        },
        {
            "geometry": {
                "type": "Point",
                "coordinates": [
                    -131.7136111111111,
                    55.355555555555554
                ]
            },
            "type": "Feature",
            "properties": {
                "kind": "station",
                "id": 105,
                "name": "Ketchikan, Ketchikan International Airport, AK"
            }
        },
        {
            "geometry": {
                "type": "Point",
                "coordinates": [
                    -149.58333333333334,
                    70.31666666666666
                ]
            },
            "type": "Feature",
            "properties": {
                "kind": "station",
                "id": 106,
                "name": "Kuparuk, Ugnu-Kuparuk Airport, AK"
            }
        },
        {
            "geometry": {
                "type": "Point",
                "coordinates": [
                    -158.73333333333332,
                    64.31666666666666
                ]
            },
            "type": "Feature",
            "properties": {
                "kind": "station",
                "id": 107,
                "name": "Kaltag, Kaltag Airport, AK"
            }
        },
        {
            "geometry": {
                "type": "Point",
                "coordinates": [
                    -133.08333333333334,
                    55.583333333333336
                ]
            },
            "type": "Feature",
            "properties": {
                "kind": "station",
                "id": 108,
                "name": "Klawock, Klawock Airport, AK"
            }
        },
        {
            "geometry": {
                "type": "Point",
                "coordinates": [
                    -96.25083333333333,
                    28.7275
                ]
            },
            "type": "Feature",
            "properties": {
                "kind": "station",
                "id": 109,
                "name": "Palacios, Palacios Municipal Airport, TX"
            }
        },
        {
            "geometry": {
                "type": "Point",
                "coordinates": [
                    -91.33333333333333,
                    40.666666666666664
                ]
            },
            "type": "Feature",
            "properties": {
                "kind": "station",
                "id": 110,
                "name": "Fort Madison, IA"
            }
        },
        {
            "geometry": {
                "type": "Point",
                "coordinates": [
                    -102.91666666666667,
                    30.911944444444444
                ]
            },
            "type": "Feature",
            "properties": {
                "kind": "station",
                "id": 111,
                "name": "Fort Stockton, Fort Stockton-Pecos County Airport, TX"
            }
        },
        {
            "geometry": {
                "type": "Point",
                "coordinates": [
                    -94.80277777777778,
                    35.43805555555555
                ]
            },
            "type": "Feature",
            "properties": {
                "kind": "station",
                "id": 112,
                "name": "Sallisaw, Sallisaw Municipal Airport, OK"
            }
        },
        {
            "geometry": {
                "type": "Point",
                "coordinates": [
                    -76.92083333333333,
                    41.24166666666667
                ]
            },
            "type": "Feature",
            "properties": {
                "kind": "station",
                "id": 113,
                "name": "Williamsport, Williamsport Regional Airport, PA"
            }
        },
        {
            "geometry": {
                "type": "Point",
                "coordinates": [
                    -78.83388888888888,
                    40.316111111111105
                ]
            },
            "type": "Feature",
            "properties": {
                "kind": "station",
                "id": 114,
                "name": "Johnstown, Johnstown-Cambria County Airport, PA"
            }
        },
        {
            "geometry": {
                "type": "Point",
                "coordinates": [
                    -111.78333333333333,
                    34.85
                ]
            },
            "type": "Feature",
            "properties": {
                "kind": "station",
                "id": 115,
                "name": "Sedona Airport, AZ"
            }
        },
        {
            "geometry": {
                "type": "Point",
                "coordinates": [
                    -90.4325,
                    38.93055555555555
                ]
            },
            "type": "Feature",
            "properties": {
                "kind": "station",
                "id": 116,
                "name": "St. Charles, St. Charles County Smartt Airport, MO"
            }
        },
        {
            "geometry": {
                "type": "Point",
                "coordinates": [
                    -110.33333333333333,
                    31.583333333333332
                ]
            },
            "type": "Feature",
            "properties": {
                "kind": "station",
                "id": 117,
                "name": "Fort Huachuca, AZ"
            }
        },
        {
            "geometry": {
                "type": "Point",
                "coordinates": [
                    -106.795,
                    35.144999999999996
                ]
            },
            "type": "Feature",
            "properties": {
                "kind": "station",
                "id": 118,
                "name": "Albuquerque, Double Eagle II Airport, NM"
            }
        },
        {
            "geometry": {
                "type": "Point",
                "coordinates": [
                    -98.18333333333334,
                    32.21666666666667
                ]
            },
            "type": "Feature",
            "properties": {
                "kind": "station",
                "id": 119,
                "name": "Stephenville, Clark Field Municipal Airport, TX"
            }
        },
        {
            "geometry": {
                "type": "Point",
                "coordinates": [
                    -96.75361111111111,
                    43.57694444444445
                ]
            },
            "type": "Feature",
            "properties": {
                "kind": "station",
                "id": 120,
                "name": "Sioux Falls, Foss Field, SD"
            }
        },
        {
            "geometry": {
                "type": "Point",
                "coordinates": [
                    -92.5586111111111,
                    31.334722222222222
                ]
            },
            "type": "Feature",
            "properties": {
                "kind": "station",
                "id": 121,
                "name": "Alexandria, Alexandria International Airport, LA"
            }
        },
        {
            "geometry": {
                "type": "Point",
                "coordinates": [
                    -77.97027777777778,
                    38.00972222222222
                ]
            },
            "type": "Feature",
            "properties": {
                "kind": "station",
                "id": 122,
                "name": "Louisa, Louisa County / Freeman Field Airport, VA"
            }
        },
        {
            "geometry": {
                "type": "Point",
                "coordinates": [
                    -120.4,
                    42.166666666666664
                ]
            },
            "type": "Feature",
            "properties": {
                "kind": "station",
                "id": 123,
                "name": "Lakeview Automatic Weather Observing / Reporting System, OR"
            }
        },
        {
            "geometry": {
                "type": "Point",
                "coordinates": [
                    -116.96666666666667,
                    32.833333333333336
                ]
            },
            "type": "Feature",
            "properties": {
                "kind": "station",
                "id": 124,
                "name": "San Diego / Gillespie, CA"
            }
        },
        {
            "geometry": {
                "type": "Point",
                "coordinates": [
                    -76.86611111111111,
                    40.81916666666667
                ]
            },
            "type": "Feature",
            "properties": {
                "kind": "station",
                "id": 125,
                "name": "Selinsgrove, Penn Valley Airport, PA"
            }
        },
        {
            "geometry": {
                "type": "Point",
                "coordinates": [
                    -94.365,
                    35.33361111111111
                ]
            },
            "type": "Feature",
            "properties": {
                "kind": "station",
                "id": 126,
                "name": "Fort Smith, Fort Smith Regional Airport, AR"
            }
        },
        {
            "geometry": {
                "type": "Point",
                "coordinates": [
                    -122.31361111111111,
                    47.44472222222222
                ]
            },
            "type": "Feature",
            "properties": {
                "kind": "station",
                "id": 127,
                "name": "Seattle, Seattle-Tacoma International Airport, WA"
            }
        },
        {
            "geometry": {
                "type": "Point",
                "coordinates": [
                    -95.21722222222222,
                    31.86916666666667
                ]
            },
            "type": "Feature",
            "properties": {
                "kind": "station",
                "id": 128,
                "name": "Jacksonville, Cherokee County Airport, TX"
            }
        },
        {
            "geometry": {
                "type": "Point",
                "coordinates": [
                    -98.4,
                    34.6
                ]
            },
            "type": "Feature",
            "properties": {
                "kind": "station",
                "id": 129,
                "name": "Fort Sill, OK"
            }
        },
        {
            "geometry": {
                "type": "Point",
                "coordinates": [
                    -90.38305555555554,
                    47.83833333333334
                ]
            },
            "type": "Feature",
            "properties": {
                "kind": "station",
                "id": 130,
                "name": "Grand Marais, Grand Marais/Cook County Airport, MN"
            }
        },
        {
            "geometry": {
                "type": "Point",
                "coordinates": [
                    -80.22472222222223,
                    39.3
                ]
            },
            "type": "Feature",
            "properties": {
                "kind": "station",
                "id": 131,
                "name": "Clarksburg, Clarksburg Benedum Airport, WV"
            }
        },
        {
            "geometry": {
                "type": "Point",
                "coordinates": [
                    -67.79194444444444,
                    46.12305555555555
                ]
            },
            "type": "Feature",
            "properties": {
                "kind": "station",
                "id": 132,
                "name": "Houlton, Houlton International Airport, ME"
            }
        },
        {
            "geometry": {
                "type": "Point",
                "coordinates": [
                    -90.66666666666667,
                    29.566666666666666
                ]
            },
            "type": "Feature",
            "properties": {
                "kind": "station",
                "id": 133,
                "name": "Houma-Terrebonne, LA"
            }
        },
        {
            "geometry": {
                "type": "Point",
                "coordinates": [
                    -90.91833333333334,
                    46.54972222222222
                ]
            },
            "type": "Feature",
            "properties": {
                "kind": "station",
                "id": 134,
                "name": "Ashland, Kennedy Memorial Airport, WI"
            }
        },
        {
            "geometry": {
                "type": "Point",
                "coordinates": [
                    -87.32527777777777,
                    39.44166666666666
                ]
            },
            "type": "Feature",
            "properties": {
                "kind": "station",
                "id": 135,
                "name": "Terre Haute, Terre Haute International Airport - Hulman Field, IN"
            }
        },
        {
            "geometry": {
                "type": "Point",
                "coordinates": [
                    -123.8825,
                    46.15694444444444
                ]
            },
            "type": "Feature",
            "properties": {
                "kind": "station",
                "id": 136,
                "name": "Astoria, Astoria Regional Airport, OR"
            }
        },
        {
            "geometry": {
                "type": "Point",
                "coordinates": [
                    -96.8111111111111,
                    46.92527777777777
                ]
            },
            "type": "Feature",
            "properties": {
                "kind": "station",
                "id": 137,
                "name": "Fargo, Hector International Airport, ND"
            }
        },
        {
            "geometry": {
                "type": "Point",
                "coordinates": [
                    -119.71944444444445,
                    36.78
                ]
            },
            "type": "Feature",
            "properties": {
                "kind": "station",
                "id": 138,
                "name": "Fresno, Fresno Air Terminal, CA"
            }
        },
        {
            "geometry": {
                "type": "Point",
                "coordinates": [
                    -96.61666666666666,
                    47.85
                ]
            },
            "type": "Feature",
            "properties": {
                "kind": "station",
                "id": 139,
                "name": "Crookston Municipal Field, MN"
            }
        },
        {
            "geometry": {
                "type": "Point",
                "coordinates": [
                    -87.415,
                    36.621944444444445
                ]
            },
            "type": "Feature",
            "properties": {
                "kind": "station",
                "id": 140,
                "name": "Clarksville, Outlaw Field Airport, TN"
            }
        },
        {
            "geometry": {
                "type": "Point",
                "coordinates": [
                    -77.17083333333333,
                    36.2975
                ]
            },
            "type": "Feature",
            "properties": {
                "kind": "station",
                "id": 141,
                "name": "Ahoskie, Tri-County Airport, NC"
            }
        },
        {
            "geometry": {
                "type": "Point",
                "coordinates": [
                    -106.86944444444444,
                    39.22888888888889
                ]
            },
            "type": "Feature",
            "properties": {
                "kind": "station",
                "id": 142,
                "name": "Aspen, Aspen-Pitkin County Airport, CO"
            }
        },
        {
            "geometry": {
                "type": "Point",
                "coordinates": [
                    -89.82194444444444,
                    30.343055555555555
                ]
            },
            "type": "Feature",
            "properties": {
                "kind": "station",
                "id": 143,
                "name": "Slidell, Slidell Airport, LA"
            }
        },
        {
            "geometry": {
                "type": "Point",
                "coordinates": [
                    -97.86055555555555,
                    38.06805555555556
                ]
            },
            "type": "Feature",
            "properties": {
                "kind": "station",
                "id": 144,
                "name": "Hutchinson, Hutchinson Municipal Airport, KS"
            }
        },
        {
            "geometry": {
                "type": "Point",
                "coordinates": [
                    -87.86666666666666,
                    42.416666666666664
                ]
            },
            "type": "Feature",
            "properties": {
                "kind": "station",
                "id": 145,
                "name": "Chicago / Waukegan, Waukegan Regional Airport, IL"
            }
        },
        {
            "geometry": {
                "type": "Point",
                "coordinates": [
                    -76.61666666666666,
                    37.13333333333333
                ]
            },
            "type": "Feature",
            "properties": {
                "kind": "station",
                "id": 146,
                "name": "Fort Eustis / Felker, VA"
            }
        },
        {
            "geometry": {
                "type": "Point",
                "coordinates": [
                    -78.9,
                    41.18333333333333
                ]
            },
            "type": "Feature",
            "properties": {
                "kind": "station",
                "id": 147,
                "name": "Du Bois, Du Bois-Jefferson County Airport, PA"
            }
        },
        {
            "geometry": {
                "type": "Point",
                "coordinates": [
                    -83.65527777777778,
                    41.73583333333333
                ]
            },
            "type": "Feature",
            "properties": {
                "kind": "station",
                "id": 148,
                "name": "Lambertville, Toledo Suburban Airport, MI"
            }
        },
        {
            "geometry": {
                "type": "Point",
                "coordinates": [
                    -97.96000000000001,
                    34.47083333333334
                ]
            },
            "type": "Feature",
            "properties": {
                "kind": "station",
                "id": 149,
                "name": "Duncan, Halliburton Field Airport, OK"
            }
        },
        {
            "geometry": {
                "type": "Point",
                "coordinates": [
                    -96.39444444444445,
                    33.94222222222222
                ]
            },
            "type": "Feature",
            "properties": {
                "kind": "station",
                "id": 150,
                "name": "Durant, Eaker Field Airport, OK"
            }
        },
        {
            "geometry": {
                "type": "Point",
                "coordinates": [
                    -109.6036111111111,
                    31.469166666666666
                ]
            },
            "type": "Feature",
            "properties": {
                "kind": "station",
                "id": 151,
                "name": "Douglas Bisbee, Bisbee Douglas International Airport, AZ"
            }
        },
        {
            "geometry": {
                "type": "Point",
                "coordinates": [
                    -102.01305555555555,
                    35.85777777777778
                ]
            },
            "type": "Feature",
            "properties": {
                "kind": "station",
                "id": 152,
                "name": "Dumas, Moore County Airport, TX"
            }
        },
        {
            "geometry": {
                "type": "Point",
                "coordinates": [
                    -94.2038888888889,
                    46.99027777777778
                ]
            },
            "type": "Feature",
            "properties": {
                "kind": "station",
                "id": 153,
                "name": "Longville, Longville Municipal Airport, MN"
            }
        },
        {
            "geometry": {
                "type": "Point",
                "coordinates": [
                    -96.11222222222221,
                    41.19583333333333
                ]
            },
            "type": "Feature",
            "properties": {
                "kind": "station",
                "id": 154,
                "name": "Omaha, Millard Airport, NE"
            }
        },
        {
            "geometry": {
                "type": "Point",
                "coordinates": [
                    -81.3913888888889,
                    31.151666666666664
                ]
            },
            "type": "Feature",
            "properties": {
                "kind": "station",
                "id": 155,
                "name": "Brunswick, Malcolm McKinnon Airport, GA"
            }
        },
        {
            "geometry": {
                "type": "Point",
                "coordinates": [
                    -104.2,
                    47.7
                ]
            },
            "type": "Feature",
            "properties": {
                "kind": "station",
                "id": 156,
                "name": "Sidney-Richland, MT"
            }
        },
        {
            "geometry": {
                "type": "Point",
                "coordinates": [
                    -80.48333333333333,
                    33.96666666666667
                ]
            },
            "type": "Feature",
            "properties": {
                "kind": "station",
                "id": 157,
                "name": "Shaw Air Force Base, SC"
            }
        },
        {
            "geometry": {
                "type": "Point",
                "coordinates": [
                    -98.47166666666666,
                    29.33888888888889
                ]
            },
            "type": "Feature",
            "properties": {
                "kind": "station",
                "id": 158,
                "name": "San Antonio, Stinson Municipal Airport, TX"
            }
        },
        {
            "geometry": {
                "type": "Point",
                "coordinates": [
                    -92.15583333333333,
                    38.59444444444445
                ]
            },
            "type": "Feature",
            "properties": {
                "kind": "station",
                "id": 159,
                "name": "Jefferson City, Jefferson City Memorial Airport, MO"
            }
        },
        {
            "geometry": {
                "type": "Point",
                "coordinates": [
                    -114.45722222222223,
                    42.72666666666667
                ]
            },
            "type": "Feature",
            "properties": {
                "kind": "station",
                "id": 160,
                "name": "Jerome, Jerome County Airport, ID"
            }
        },
        {
            "geometry": {
                "type": "Point",
                "coordinates": [
                    -114.215,
                    44.522777777777776
                ]
            },
            "type": "Feature",
            "properties": {
                "kind": "station",
                "id": 161,
                "name": "Challis, Challis Airport, ID"
            }
        },
        {
            "geometry": {
                "type": "Point",
                "coordinates": [
                    -78.9,
                    38.266666666666666
                ]
            },
            "type": "Feature",
            "properties": {
                "kind": "station",
                "id": 162,
                "name": "Staunton / Shenandoah, VA"
            }
        },
        {
            "geometry": {
                "type": "Point",
                "coordinates": [
                    -88.91666666666667,
                    40.483333333333334
                ]
            },
            "type": "Feature",
            "properties": {
                "kind": "station",
                "id": 163,
                "name": "Bloomington / Normal, IL"
            }
        },
        {
            "geometry": {
                "type": "Point",
                "coordinates": [
                    -71.17861111111111,
                    44.57611111111112
                ]
            },
            "type": "Feature",
            "properties": {
                "kind": "station",
                "id": 164,
                "name": "Berlin, Berlin Municipal Airport, NH"
            }
        },
        {
            "geometry": {
                "type": "Point",
                "coordinates": [
                    -94.21666666666667,
                    36.35
                ]
            },
            "type": "Feature",
            "properties": {
                "kind": "station",
                "id": 165,
                "name": "Bentonville, Bentonville Municipal Airport/Louise M Thaden Field, AR"
            }
        },
        {
            "geometry": {
                "type": "Point",
                "coordinates": [
                    -117.00972222222222,
                    44.019444444444446
                ]
            },
            "type": "Feature",
            "properties": {
                "kind": "station",
                "id": 166,
                "name": "Ontario, Ontario Municipal Airport, OR"
            }
        },
        {
            "geometry": {
                "type": "Point",
                "coordinates": [
                    -86.61666666666666,
                    39.143055555555556
                ]
            },
            "type": "Feature",
            "properties": {
                "kind": "station",
                "id": 167,
                "name": "Bloomington, Monroe County Airport, IN"
            }
        },
        {
            "geometry": {
                "type": "Point",
                "coordinates": [
                    -120.56666666666666,
                    34.75
                ]
            },
            "type": "Feature",
            "properties": {
                "kind": "station",
                "id": 168,
                "name": "Vandenberg Air Force Base, CA"
            }
        },
        {
            "geometry": {
                "type": "Point",
                "coordinates": [
                    -98.23527777777778,
                    30.740555555555556
                ]
            },
            "type": "Feature",
            "properties": {
                "kind": "station",
                "id": 169,
                "name": "Burnet, Burnet Municipal Craddock Field, TX"
            }
        },
        {
            "geometry": {
                "type": "Point",
                "coordinates": [
                    -86.99805555555555,
                    41.45305555555556
                ]
            },
            "type": "Feature",
            "properties": {
                "kind": "station",
                "id": 170,
                "name": "Valparaiso, Porter County Municipal Airport, IN"
            }
        },
        {
            "geometry": {
                "type": "Point",
                "coordinates": [
                    -86.51666666666667,
                    30.483333333333334
                ]
            },
            "type": "Feature",
            "properties": {
                "kind": "station",
                "id": 171,
                "name": "Valparaiso / Eglin Air Force Base, FL"
            }
        },
        {
            "geometry": {
                "type": "Point",
                "coordinates": [
                    -86.94333333333334,
                    34.658055555555556
                ]
            },
            "type": "Feature",
            "properties": {
                "kind": "station",
                "id": 172,
                "name": "Decatur, Pryor Field, AL"
            }
        },
        {
            "geometry": {
                "type": "Point",
                "coordinates": [
                    -97.45,
                    35.21666666666667
                ]
            },
            "type": "Feature",
            "properties": {
                "kind": "station",
                "id": 173,
                "name": "Norman / Max Westheimer, OK"
            }
        },
        {
            "geometry": {
                "type": "Point",
                "coordinates": [
                    -84.84722222222221,
                    34.12833333333333
                ]
            },
            "type": "Feature",
            "properties": {
                "kind": "station",
                "id": 174,
                "name": "Cartersville, Cartersville Airport, GA"
            }
        },
        {
            "geometry": {
                "type": "Point",
                "coordinates": [
                    -139.66666666666666,
                    59.516666666666666
                ]
            },
            "type": "Feature",
            "properties": {
                "kind": "station",
                "id": 175,
                "name": "Yakutat, AK"
            }
        },
        {
            "geometry": {
                "type": "Point",
                "coordinates": [
                    -103.15305555555557,
                    36.44833333333333
                ]
            },
            "type": "Feature",
            "properties": {
                "kind": "station",
                "id": 176,
                "name": "Clayton, Clayton Municipal Airpark, NM"
            }
        },
        {
            "geometry": {
                "type": "Point",
                "coordinates": [
                    -104.63388888888889,
                    39.21666666666667
                ]
            },
            "type": "Feature",
            "properties": {
                "kind": "station",
                "id": 177,
                "name": "Elbert Mountain, Monument Pass, CO"
            }
        },
        {
            "geometry": {
                "type": "Point",
                "coordinates": [
                    -156.95,
                    20.783333333333335
                ]
            },
            "type": "Feature",
            "properties": {
                "kind": "station",
                "id": 178,
                "name": "Lanai City Airport, HI"
            }
        },
        {
            "geometry": {
                "type": "Point",
                "coordinates": [
                    -157.76555555555555,
                    21.453888888888887
                ]
            },
            "type": "Feature",
            "properties": {
                "kind": "station",
                "id": 179,
                "name": "Kaneohe, Marine Corps Air Station, HI"
            }
        },
        {
            "geometry": {
                "type": "Point",
                "coordinates": [
                    -157.94305555555556,
                    21.3275
                ]
            },
            "type": "Feature",
            "properties": {
                "kind": "station",
                "id": 180,
                "name": "Honolulu, Honolulu International Airport, HI"
            }
        },
        {
            "geometry": {
                "type": "Point",
                "coordinates": [
                    -76.85,
                    38.81666666666667
                ]
            },
            "type": "Feature",
            "properties": {
                "kind": "station",
                "id": 181,
                "name": "Camp Springs / Andrews Air Force Base, MD"
            }
        },
        {
            "geometry": {
                "type": "Point",
                "coordinates": [
                    -122.9,
                    46.11666666666667
                ]
            },
            "type": "Feature",
            "properties": {
                "kind": "station",
                "id": 182,
                "name": "Kelso-Longview Automatic Weather Observing / Reporting System, WA"
            }
        },
        {
            "geometry": {
                "type": "Point",
                "coordinates": [
                    -93.68333333333334,
                    46.55
                ]
            },
            "type": "Feature",
            "properties": {
                "kind": "station",
                "id": 183,
                "name": "Aitkin NDB Automatic Weather Observing / Reporting System , MN"
            }
        },
        {
            "geometry": {
                "type": "Point",
                "coordinates": [
                    -123.13222222222221,
                    45.19611111111111
                ]
            },
            "type": "Feature",
            "properties": {
                "kind": "station",
                "id": 184,
                "name": "McMinnville, McMinnville Municipal Airport, OR"
            }
        },
        {
            "geometry": {
                "type": "Point",
                "coordinates": [
                    -74.41666666666667,
                    40.8
                ]
            },
            "type": "Feature",
            "properties": {
                "kind": "station",
                "id": 185,
                "name": "Morristown Municipal, NJ"
            }
        },
        {
            "geometry": {
                "type": "Point",
                "coordinates": [
                    -80.8,
                    33.916666666666664
                ]
            },
            "type": "Feature",
            "properties": {
                "kind": "station",
                "id": 186,
                "name": "McEntire Air National Guard Weather Facility Base, SC"
            }
        },
        {
            "geometry": {
                "type": "Point",
                "coordinates": [
                    -95.81666666666666,
                    44.45
                ]
            },
            "type": "Feature",
            "properties": {
                "kind": "station",
                "id": 187,
                "name": "Marshall / Ryan Automatic Weather Observing / Reporting System, MN"
            }
        },
        {
            "geometry": {
                "type": "Point",
                "coordinates": [
                    -72.82777777777777,
                    41.50972222222222
                ]
            },
            "type": "Feature",
            "properties": {
                "kind": "station",
                "id": 188,
                "name": "Meriden, Meriden Markham Municipal Airport, CT"
            }
        },
        {
            "geometry": {
                "type": "Point",
                "coordinates": [
                    -118.83333333333333,
                    37.61666666666667
                ]
            },
            "type": "Feature",
            "properties": {
                "kind": "station",
                "id": 189,
                "name": "Mammoth / June Lakes, CA"
            }
        },
        {
            "geometry": {
                "type": "Point",
                "coordinates": [
                    -87.18333333333334,
                    35.55
                ]
            },
            "type": "Feature",
            "properties": {
                "kind": "station",
                "id": 190,
                "name": "Columbia / Maury County, TN"
            }
        },
        {
            "geometry": {
                "type": "Point",
                "coordinates": [
                    -95.05,
                    41.4
                ]
            },
            "type": "Feature",
            "properties": {
                "kind": "station",
                "id": 191,
                "name": "Atlantic, IA"
            }
        },
        {
            "geometry": {
                "type": "Point",
                "coordinates": [
                    -85.95361111111112,
                    37.031666666666666
                ]
            },
            "type": "Feature",
            "properties": {
                "kind": "station",
                "id": 192,
                "name": "Glasgow, Glasgow Municipal Airport, KY"
            }
        },
        {
            "geometry": {
                "type": "Point",
                "coordinates": [
                    -84.6888888888889,
                    45.01638888888889
                ]
            },
            "type": "Feature",
            "properties": {
                "kind": "station",
                "id": 193,
                "name": "Gaylord, Otsego County Airport, MI"
            }
        },
        {
            "geometry": {
                "type": "Point",
                "coordinates": [
                    -94.86416666666666,
                    29.27027777777778
                ]
            },
            "type": "Feature",
            "properties": {
                "kind": "station",
                "id": 194,
                "name": "Galveston, Scholes Field, TX"
            }
        },
        {
            "geometry": {
                "type": "Point",
                "coordinates": [
                    -90.98555555555555,
                    33.48277777777778
                ]
            },
            "type": "Feature",
            "properties": {
                "kind": "station",
                "id": 195,
                "name": "Greenville, Mid Delta Regional Airport, MS"
            }
        },
        {
            "geometry": {
                "type": "Point",
                "coordinates": [
                    -101.69305555555556,
                    39.3675
                ]
            },
            "type": "Feature",
            "properties": {
                "kind": "station",
                "id": 196,
                "name": "Goodland, Renner Field, KS"
            }
        },
        {
            "geometry": {
                "type": "Point",
                "coordinates": [
                    -97.19694444444445,
                    33.65138888888889
                ]
            },
            "type": "Feature",
            "properties": {
                "kind": "station",
                "id": 197,
                "name": "Gainesville, Gainesville Municipal Airport, TX"
            }
        },
        {
            "geometry": {
                "type": "Point",
                "coordinates": [
                    -95.21166666666667,
                    39.00833333333333
                ]
            },
            "type": "Feature",
            "properties": {
                "kind": "station",
                "id": 198,
                "name": "Lawrence, Lawrence Municipal Airport, KS"
            }
        },
        {
            "geometry": {
                "type": "Point",
                "coordinates": [
                    -87.59944444444444,
                    34.74388888888889
                ]
            },
            "type": "Feature",
            "properties": {
                "kind": "station",
                "id": 199,
                "name": "Muscle Shoals, North West Alabama Regional Airport, AL"
            }
        },
        {
            "geometry": {
                "type": "Point",
                "coordinates": [
                    -114.0925,
                    46.920833333333334
                ]
            },
            "type": "Feature",
            "properties": {
                "kind": "station",
                "id": 200,
                "name": "Missoula, Missoula International Airport, MT"
            }
        },
        {
            "geometry": {
                "type": "Point",
                "coordinates": [
                    -89.34527777777777,
                    43.14055555555556
                ]
            },
            "type": "Feature",
            "properties": {
                "kind": "station",
                "id": 201,
                "name": "Madison, Dane County Regional-Truax Field, WI"
            }
        },
        {
            "geometry": {
                "type": "Point",
                "coordinates": [
                    -82.88138888888888,
                    34.67222222222222
                ]
            },
            "type": "Feature",
            "properties": {
                "kind": "station",
                "id": 202,
                "name": "Clemson, Clemson-Oconee County Airport, SC"
            }
        },
        {
            "geometry": {
                "type": "Point",
                "coordinates": [
                    -74.84555555555555,
                    44.93583333333333
                ]
            },
            "type": "Feature",
            "properties": {
                "kind": "station",
                "id": 203,
                "name": "Massena, Massena International-Richards Field, NY"
            }
        },
        {
            "geometry": {
                "type": "Point",
                "coordinates": [
                    -74.8,
                    41.7
                ]
            },
            "type": "Feature",
            "properties": {
                "kind": "station",
                "id": 204,
                "name": "Monticello Automatic Weather Observing / Reporting System, NY"
            }
        },
        {
            "geometry": {
                "type": "Point",
                "coordinates": [
                    -90.25083333333333,
                    29.99277777777778
                ]
            },
            "type": "Feature",
            "properties": {
                "kind": "station",
                "id": 205,
                "name": "New Orleans, New Orleans International Airport, LA"
            }
        },
        {
            "geometry": {
                "type": "Point",
                "coordinates": [
                    -112.4975,
                    45.95472222222222
                ]
            },
            "type": "Feature",
            "properties": {
                "kind": "station",
                "id": 206,
                "name": "Butte, Bert Mooney Airport, MT"
            }
        },
        {
            "geometry": {
                "type": "Point",
                "coordinates": [
                    -87.18694444444445,
                    30.478055555555553
                ]
            },
            "type": "Feature",
            "properties": {
                "kind": "station",
                "id": 207,
                "name": "Pensacola, Pensacola Regional Airport, FL"
            }
        },
        {
            "geometry": {
                "type": "Point",
                "coordinates": [
                    -98.28333333333333,
                    29.533333333333335
                ]
            },
            "type": "Feature",
            "properties": {
                "kind": "station",
                "id": 208,
                "name": "Randolph Air Force Base, TX"
            }
        },
        {
            "geometry": {
                "type": "Point",
                "coordinates": [
                    -88.62527777777777,
                    40.92361111111111
                ]
            },
            "type": "Feature",
            "properties": {
                "kind": "station",
                "id": 209,
                "name": "Pontiac, Pontiac Municipal Airport, IL"
            }
        },
        {
            "geometry": {
                "type": "Point",
                "coordinates": [
                    -92.53805555555556,
                    45.14833333333333
                ]
            },
            "type": "Feature",
            "properties": {
                "kind": "station",
                "id": 210,
                "name": "New Richmond, New Richmond Municipal Airport, WI"
            }
        },
        {
            "geometry": {
                "type": "Point",
                "coordinates": [
                    -116.91583333333334,
                    33.0375
                ]
            },
            "type": "Feature",
            "properties": {
                "kind": "station",
                "id": 211,
                "name": "Ramona, Ramona Airport, CA"
            }
        },
        {
            "geometry": {
                "type": "Point",
                "coordinates": [
                    -119.77111111111111,
                    39.48388888888889
                ]
            },
            "type": "Feature",
            "properties": {
                "kind": "station",
                "id": 212,
                "name": "Reno, Reno Tahoe International Airport, NV"
            }
        },
        {
            "geometry": {
                "type": "Point",
                "coordinates": [
                    -98.86666666666666,
                    38.35
                ]
            },
            "type": "Feature",
            "properties": {
                "kind": "station",
                "id": 213,
                "name": "Great Bend Automatic Weather Observing / Reporting System, KS"
            }
        },
        {
            "geometry": {
                "type": "Point",
                "coordinates": [
                    -90.43111111111112,
                    40.93805555555555
                ]
            },
            "type": "Feature",
            "properties": {
                "kind": "station",
                "id": 214,
                "name": "Galesburg, Galesburg Municipal Airport, IL"
            }
        },
        {
            "geometry": {
                "type": "Point",
                "coordinates": [
                    -122.21277777777777,
                    47.49444444444445
                ]
            },
            "type": "Feature",
            "properties": {
                "kind": "station",
                "id": 215,
                "name": "Renton, Renton Municipal Airport, WA"
            }
        },
        {
            "geometry": {
                "type": "Point",
                "coordinates": [
                    -75.01361111111112,
                    40.07888888888889
                ]
            },
            "type": "Feature",
            "properties": {
                "kind": "station",
                "id": 216,
                "name": "Philadelphia, Northeast Philadelphia Airport, PA"
            }
        },
        {
            "geometry": {
                "type": "Point",
                "coordinates": [
                    -93.6,
                    45.55
                ]
            },
            "type": "Feature",
            "properties": {
                "kind": "station",
                "id": 217,
                "name": "Princeton, MN"
            }
        },
        {
            "geometry": {
                "type": "Point",
                "coordinates": [
                    -77.45,
                    38.266666666666666
                ]
            },
            "type": "Feature",
            "properties": {
                "kind": "station",
                "id": 218,
                "name": "Fredericksburg, Shannon Airport, VA"
            }
        },
        {
            "geometry": {
                "type": "Point",
                "coordinates": [
                    -116.46833333333333,
                    32.626111111111115
                ]
            },
            "type": "Feature",
            "properties": {
                "kind": "station",
                "id": 219,
                "name": "Campo, CA"
            }
        },
        {
            "geometry": {
                "type": "Point",
                "coordinates": [
                    -79.5,
                    35.03333333333333
                ]
            },
            "type": "Feature",
            "properties": {
                "kind": "station",
                "id": 220,
                "name": "Mackall U. S. Army Airfield, NC"
            }
        },
        {
            "geometry": {
                "type": "Point",
                "coordinates": [
                    -72.65166666666667,
                    41.735
                ]
            },
            "type": "Feature",
            "properties": {
                "kind": "station",
                "id": 221,
                "name": "Hartford, Hartford-Brainard Airport, CT"
            }
        },
        {
            "geometry": {
                "type": "Point",
                "coordinates": [
                    -74.73666666666666,
                    41.00888888888889
                ]
            },
            "type": "Feature",
            "properties": {
                "kind": "station",
                "id": 222,
                "name": "Andover, Aeroflex-Andover Airport, NJ"
            }
        },
        {
            "geometry": {
                "type": "Point",
                "coordinates": [
                    -93.01666666666667,
                    41.68333333333333
                ]
            },
            "type": "Feature",
            "properties": {
                "kind": "station",
                "id": 223,
                "name": "Newton Municipal, IA"
            }
        },
        {
            "geometry": {
                "type": "Point",
                "coordinates": [
                    -92.54333333333334,
                    40.09722222222222
                ]
            },
            "type": "Feature",
            "properties": {
                "kind": "station",
                "id": 224,
                "name": "Kirksville, Kirksville Regional Airport, MO"
            }
        },
        {
            "geometry": {
                "type": "Point",
                "coordinates": [
                    -81.65,
                    36.2
                ]
            },
            "type": "Feature",
            "properties": {
                "kind": "station",
                "id": 225,
                "name": "Boone, Watauga County Hospital Heliport, NC"
            }
        },
        {
            "geometry": {
                "type": "Point",
                "coordinates": [
                    -97.14944444444446,
                    44.90472222222222
                ]
            },
            "type": "Feature",
            "properties": {
                "kind": "station",
                "id": 226,
                "name": "Watertown, Watertown Municipal Airport, SD"
            }
        },
        {
            "geometry": {
                "type": "Point",
                "coordinates": [
                    -97.96611111111112,
                    35.096111111111114
                ]
            },
            "type": "Feature",
            "properties": {
                "kind": "station",
                "id": 227,
                "name": "Chickasha, Chickasha Municipal Airport, OK"
            }
        },
        {
            "geometry": {
                "type": "Point",
                "coordinates": [
                    -72.25194444444445,
                    40.95944444444445
                ]
            },
            "type": "Feature",
            "properties": {
                "kind": "station",
                "id": 228,
                "name": "East Hampton, East Hampton Airport, NY"
            }
        },
        {
            "geometry": {
                "type": "Point",
                "coordinates": [
                    -111.8111111111111,
                    33.26916666666666
                ]
            },
            "type": "Feature",
            "properties": {
                "kind": "station",
                "id": 229,
                "name": "Chandler, Chandler Municipal Airport, AZ"
            }
        },
        {
            "geometry": {
                "type": "Point",
                "coordinates": [
                    -104.4675,
                    32.8525
                ]
            },
            "type": "Feature",
            "properties": {
                "kind": "station",
                "id": 230,
                "name": "Artesia, Artesia Municipal Airport, NM"
            }
        },
        {
            "geometry": {
                "type": "Point",
                "coordinates": [
                    -97.76666666666667,
                    30.316666666666666
                ]
            },
            "type": "Feature",
            "properties": {
                "kind": "station",
                "id": 231,
                "name": "Austin City, Austin Camp Mabry, TX"
            }
        },
        {
            "geometry": {
                "type": "Point",
                "coordinates": [
                    -88.51666666666667,
                    44.25
                ]
            },
            "type": "Feature",
            "properties": {
                "kind": "station",
                "id": 232,
                "name": "Appleton / Outagamie, WI"
            }
        },
        {
            "geometry": {
                "type": "Point",
                "coordinates": [
                    -84.44222222222223,
                    33.62972222222222
                ]
            },
            "type": "Feature",
            "properties": {
                "kind": "station",
                "id": 233,
                "name": "Atlanta, Hartsfield Atlanta International Airport, GA"
            }
        },
        {
            "geometry": {
                "type": "Point",
                "coordinates": [
                    145.25,
                    14.183333333333334
                ]
            },
            "type": "Feature",
            "properties": {
                "kind": "station",
                "id": 234,
                "name": "Rota Island, N. Mariana Is, Rota International Airport, GU"
            }
        },
        {
            "geometry": {
                "type": "Point",
                "coordinates": [
                    -82.55499999999999,
                    38.365
                ]
            },
            "type": "Feature",
            "properties": {
                "kind": "station",
                "id": 235,
                "name": "Huntington, Tri-State Airport, WV"
            }
        },
        {
            "geometry": {
                "type": "Point",
                "coordinates": [
                    -80.04055555555556,
                    32.89888888888889
                ]
            },
            "type": "Feature",
            "properties": {
                "kind": "station",
                "id": 236,
                "name": "Charleston, Charleston Air Force Base, SC"
            }
        },
        {
            "geometry": {
                "type": "Point",
                "coordinates": [
                    -83.33083333333333,
                    42.231388888888894
                ]
            },